,id,Name,Latitude,Longitude
0,0,roli_bastani,38.08003568793997,46.30858540534973
1,1,lalehzar_tabriz,38.09703601625928,46.27109885215759
2,2,saniz,38.07700438693774,46.31658166131330
3,3,mosbat_tabriz,38.05686788294643,46.36146247386932
4,4,asa_cafe,38.06474035380125,46.35934285819530
5,5,kolbeh_tabriz,38.06683464425639,46.35102465748787
6,6,sansevan_tabriz,38.05448131849337,46.34750157594681
7,7,geramaphone_tabriz,38.05980874139353,46.28330826759338
8,8,badas_tabriz,38.08056139993987,46.37023329734802
9,9,urbancafe-tabriz,38.07130282660564,46.28806382417679
10,10,roz_tabriz,38.04719547952869,46.34753108024597
11,11,coffee-pedar,38.07351700000000,46.28803900000000
12,12,cafe_pizza,38.06434710000000,46.39496730000000
13,13,lounge-tabriz,38.07664274890498,46.37397229671478
14,14,paeez81,38.05639026000360,46.36128609848730
15,15,emarat,38.02567052716730,46.36569596842350
16,16,Amirchocolateplus,38.06034217383940,46.34775374803420
17,17,13takeaway,38.06466697404120,46.35498296405180
18,18,Rex,38.07210089031620,46.36850311324380
19,19,mescafe_zangan,36.68753400079598,48.51240098476410
20,20,sarozangan,36.69280578437379,48.51084326630719
21,21,soole_zangan,36.66294768103074,48.50678175687790
22,22,armando_zanjan,36.65830661322192,48.50782513618469
23,23,zhi,36.67936883233734,48.48590075969696
24,24,cococafe_uromia,37.52591346948916,45.03868550062179
25,25,abshar_oromieh,37.54550614587921,45.10617936421113
26,26,zhavcafe-hamedan,34.78350531838270,48.51735234260559
27,27,moon,34.79885750000000,48.51502250000000
28,28,arca,32.63557547848710,51.65511712431910
29,29,emarat_simon,32.63645666341453,51.65712609887123
30,30,saad_abad,32.64761627047777,51.66876286268234
31,31,nikan_isfahan,32.63402625472273,51.68074965476990
32,32,parkland_isfahan,32.63932744215874,51.64823792874813
33,33,dastan_esfahan,32.65916740231487,51.67340040206909
34,34,iranian_esfahan,32.63327803243643,51.68838389217853
35,35,radio_esfahan,32.65512524049099,51.66777849197388
36,36,ribar_esfahan,32.63960412525059,51.64387732744217
37,37,sense_esfahan,32.62824186918681,51.65379962852216
38,38,jinergelato_esfahan,32.63581970395187,51.65533840656280
39,39,nazhland,32.63944715005046,51.60600721836090
40,40,hamdamo-saltane-esfahan,32.65846737620234,51.67903840541839
41,41,cafekaghaz-esfahan,32.62603661152406,51.66477173566818
42,42,messo_qali,32.65888513438070,51.67545899748802
43,43,toranj_isfahan,32.63323116245478,51.65106296539306
44,44,farhang_esfahan,32.64636738127020,51.66659413546426
45,45,tatilat_esfahan,32.63307304667290,51.65369689464569
46,46,mystar,32.63052508526016,51.64740443229675
47,47,Sharbatsarayeroozegarnow,32.65560030186440,51.67908801300340
48,48,Sharbatsarayeroozagar,32.65810608759200,51.67848029181440
49,49,plaque2,32.65089700000000,51.67616800000000
50,50,Teatr,32.65379599225160,51.66923368375410
51,51,pastoisfahan,32.64749205664958,51.66899085044861
52,52,One,32.63628725974480,51.65711134672160
53,53,Sharbatkhanefiroo,32.63603431142950,51.65691365928870
54,54,Hermes-brewbar,32.63411172914810,51.67815895263910
55,55,Narvan,32.66051064236520,51.67675441056210
56,56,Teendounat,32.63439270263860,51.67919160990170
57,57,firstcupiran,32.55180500000000,51.68992500000000
58,58,laberitchaharbagh,32.65352800000000,51.66897200000000
59,59,terraceesfahan,32.55181800000000,51.68923800000000
60,60,lavazza,26.52544113686074,54.03301477432251
61,61,navado_shish_kish,26.54824362975204,54.01888489723205
62,62,foodsun_kish,26.53602047333741,54.01905119419098
63,63,cafeananas-kish,26.54449811697810,53.89987394213680
64,64,micafe-kish,26.53841537564980,54.02611063110970
65,65,tehroon-cafe-kish,26.54275368843329,54.02406156063080
66,66,padide-shandiz-kish,26.51716278960748,53.92628759890385
67,67,honarmand-kish,26.54340995180353,54.00923967361450
68,68,viuna-kish,26.54192825495074,54.01901364326477
69,69,mirmohanna,26.54069969179117,54.02483940124512
70,70,diao_kerman,30.27802584719262,57.02391386032104
71,71,5-30,30.29219871283110,57.04462721943860
72,72,royal_cafe,30.28139951825035,57.04883962869644
73,73,ritooncafe-kerman,30.29431290084265,57.04653024673462
74,74,pianocafe-kerman,30.28328839911060,57.04330086708069
75,75,sharbatchiyan,30.29773192734459,57.04096573728748
76,76,roz-kerman,30.28581765902334,57.03630566596985
77,77,barista-kerman,30.29215441948250,57.03531861305237
78,78,keykhosro,30.29538749187601,57.08882331848144
79,79,1stclass,35.82468347019756,50.97659358318362
80,80,mehradhal_karaj,35.83522828600601,51.01366281509399
81,81,lukas_mehrshahr,35.80097178542949,50.90738967061043
82,82,emarat_asemani,35.83511086412926,50.98645985126495
83,83,kavich_gohardasht,35.84150684159402,50.97120210528374
84,84,venhan_gohardasht,35.84356044655361,50.96744298934936
85,85,shad_karaj,35.86071776504637,50.97494244575500
86,86,amooghobad_karaj,35.86105687381065,50.97697019577026
87,87,anan_gohardasht,35.85923088641566,50.97433090209961
88,88,billionaires_karaj,35.84716309566336,51.01256847381592
89,89,tishini_karaj,35.84734354994484,51.01289033889770
90,90,character,35.79458233148640,50.89561343193054
91,91,shahrekhodro,35.79833187415961,50.90182006359100
92,92,ghalb_khorshid,35.83576755461560,51.01483225822449
93,93,pedra_azimiye,35.83677867337904,51.01997673511505
94,94,luigi_karaj,35.79829271535936,50.90180933475494
95,95,fanoos_karaj,35.82809132959332,50.98990917205810
96,96,rest_karaj,35.83734402448996,51.02004647254944
97,97,darchin_cafe,35.82431546347022,50.98786801099777
98,98,seven_karaj,35.83540224402251,50.98656177520752
99,99,kohan_diyaran,35.81981740000000,51.01649230000000
100,100,bokhara_karaj,35.82492059276356,50.98788142204285
101,101,zhozak_azimiyeh,35.83223234294451,50.99961407482624
102,102,zhozek_mehrshahr,35.79361527538714,50.89013099670410
103,103,expose,35.79002107397580,50.89294195175171
104,104,blanch-atar,35.81655167489695,50.95307774841785
105,105,mana,35.81541632233973,50.95848441123962
106,106,royalpalas_mehrshahr,35.80377911026840,50.90240478515625
107,107,shamsolemare_gohardasht,35.85300699671814,50.97561836242676
108,108,kardo_karaj,35.82074603105342,50.93640714883804
109,109,themaze_karaj,35.84480193313371,51.01040124893188
110,110,burger_buffalo,35.79639131483837,50.89751243591308
111,111,doran_azimieh,35.84149053430107,51.01940810680389
112,112,garnish_karaj,35.83811593969324,50.97809672355652
113,113,firstclass,35.84438013426859,50.97238361835480
114,114,khalifagarden,35.80537878422100,50.90024426579480
115,115,artemiss,35.79476893015839,50.89556544176639
116,116,zafar1,35.84316908073099,50.97254991531372
117,117,fungo,35.84311847411559,50.97734586328636
118,118,anloo_karaj,35.82760526890328,50.98804719939209
119,119,karzin_karaj,35.77428473889014,50.97525894641876
120,120,navy,35.83007558631956,50.93965086411595
121,121,zharles,35.85387801724290,50.98223833230099
122,122,waffle,35.83651774073826,50.98437979817390
123,123,amirshokolatpelus,35.83654165959940,50.98442975431680
124,124,tt,35.87098100000000,50.97107000000000
125,125,riboon,35.82054485491297,50.97078770399093
126,126,cafe-sibil,35.81425920302870,50.90423673391342
127,127,daloon,35.85658747776333,50.97183108329773
128,128,shams1,35.80095982064016,50.90773165225983
129,129,blanch,35.84113829595571,51.02077871561050
130,130,chenin,35.82818200000000,50.98506100000000
131,131,mazzo,35.83710104789490,51.02003502537832
132,132,havana-karaj,35.85909176184203,50.97846150398254
133,133,plus-karaj,35.84034575395969,51.01521179080009
134,134,alef_karaj,35.84794565905080,50.97870846356360
135,135,lounge_karaj,35.83677300000000,51.01894800000000
136,136,daryoush,35.83740008727730,51.01997323978670
137,137,sedayat,35.85516812935710,50.97914095672120
138,138,bnd_hormozgan,27.20585728866426,56.33758485317230
139,139,konjdenj-bandarabas,27.20478751015614,56.33262138771693
140,140,nardin-bandarabas,27.20893600000000,56.34269200000000
141,141,salmont-bandarabas,27.18298777744180,56.31291389465332
142,142,art-bandarabas,27.20426161311666,56.34042332270235
143,143,rush-bandarabas,27.18343600000000,56.31079500000000
144,144,coco-bandarabas,27.20308533193749,56.34099125862121
145,145,grillpiano-bandarabas,27.19346167004784,56.34425282478332
146,146,fin-bandarabas,27.18204293148240,56.29600524902340
147,147,zhino-sabzevar,36.21388626098630,57.68589782714840
148,148,terasmashhad,36.32147031584075,59.53302383422851
149,149,terrace-mashhad,36.32147031584075,59.53302919864654
150,150,pardisan_mashad,36.30060307592185,59.53622134723878
151,151,boocafe,36.31015411664746,59.56628322601318
152,152,aron_mashhad,36.32111589907588,59.51983809471130
153,153,comma_mahshad,36.28392038083563,59.56511684699819
154,154,sandali-mashhad,36.32226717111480,59.52179147638410
155,155,suger-ahmadabad-mashhad,36.29504023664463,59.57299947738647
156,156,suger-sajad-mashhad,36.31849230046303,59.55378413200378
157,157,kook-mashhad,36.31148119676116,59.55475777387619
158,158,leon-mashhad,36.26853199889231,59.55186367034912
159,159,retro-mashhad,36.33215260466070,59.46550059716420
160,160,cafe1860-mashhad,36.30161184870307,59.48548436164856
161,161,nabaatcafe-mashhad,36.30513089225756,59.56786036491394
162,162,cafe81,36.31547700000000,59.54590900000000
163,163,sasan_hotel_shiraz,29.61989030076001,52.53782138228416
164,164,soofi_shiraz,29.63139603530529,52.49468207359314
165,165,almas_shiraz,29.68027479552527,52.46015736521061
166,166,hajabasali_pesaran,29.63019300466098,52.54658818244934
167,167,shin_shiraz,29.64232061952459,52.47141147514389
168,168,savana_shiraz,29.63092042025619,52.50603318214416
169,169,banan_shiraz,29.61886842495461,52.52679884433746
170,170,screwchis,29.63426657007024,52.53693629276211
171,171,bababastani-niyayesh,29.66616580212285,52.49142050743103
172,172,vital,29.63549928756072,52.47038125991821
173,173,khosha-shiraz,29.73441160297166,52.43906378746033
174,174,haftkhan_shiraz,29.63275758753908,52.55663037300110
175,175,joulep-shieaz,29.61505130949088,52.54567623138428
176,176,caferoyal-shiraz,29.61481113184514,52.54552870988846
177,177,pansion_ketab,29.61921468637110,52.54730600863700
178,178,cafeinn-shiraz,29.67858483939130,52.45579796483870
179,179,street-lounge-shiraz,29.69207447088546,52.46417999267578
180,180,ferdowsi-shiraz,29.62420490139250,52.54014476191500
181,181,shahrekaghazi-shiraz,29.62271368860470,52.51897329965530
182,182,yoga-shiraz,29.62179971764936,52.48360956280521
183,183,chill-shiraz,29.62482349385120,52.52324670052320
184,184,cando-shiraz,29.68950832797490,52.47363647182510
185,185,khanehonar-shiraz,29.63723211015670,52.52222188396680
186,186,bahman-57,29.62664444686381,52.50564157962799
187,187,nagashi,29.62322633543465,52.54146516323089
188,188,hayat,29.63039898943602,52.51036996206494
189,189,geren,29.66612618130941,52.49136686325073
190,190,mahooni,29.62879149081400,52.55698735825717
191,191,patogh-ketab,29.61944651675191,52.52338499575444
192,192,memar,29.63670400317458,52.53358179887982
193,193,hedayat-shiraz,29.62439303458540,52.52386406584520
194,194,lobbylounge_shiraz,29.67755672130814,52.46019624173641
195,195,cafechi_qom,34.63382143861470,50.86849093437195
196,196,firoozeh,34.61447107665699,50.84530055522919
197,197,lamiz-qom,34.74239272977071,50.86744487285614
198,198,barancafe-qom,34.62776818407790,50.86194002589950
199,199,barooncafe-qom,34.61913355097590,50.85655870036460
200,200,zhihat-qom,34.61355939932814,50.84584772586822
201,201,javvafe-qom,34.60941367977332,50.85599184036255
202,202,bahmancafe-qom,34.62173985512479,50.86015462875366
203,203,mazhan_ahvaz,31.35742082373377,48.71974647045135
204,204,pottery,31.35730286602418,48.70781600475311
205,205,noveno_ahvaz,31.34910157937606,48.68017315864563
206,206,sahel_ahvaz,31.29331676566026,48.65693832341833
207,207,rest-ahwaz,31.29899418954470,48.62099558115005
208,208,basil_ahvaz,31.35032019311224,48.69917392730713
209,209,khatere-keramat-icecream,31.30940560000000,48.68577080000000
210,210,famili_ahvaz,31.34438273815209,48.67528080940246
211,211,royalpark,31.34788040000000,48.70535200000000
212,212,da-ahvaz,31.34840693957490,48.69361504912376
213,213,cafedeniz-ahvaz,31.35466080359636,48.68844509124756
214,214,bruja-ahvaz,31.34366343767848,48.67470681667328
215,215,puzzle-ahvaz,31.34361032747569,48.69111883454025
216,216,don-ahvaz,31.35457605480809,48.68609011173248
217,217,gallery28-ahvaz,31.33259376365627,48.66981446743011
218,218,cinema-ahvaz,31.35286800627882,48.68995705323868
219,219,rhino-ahvaz,31.34533568827120,48.68758678436279
220,220,borj-ahvaz,31.33466942673138,48.67538809776306
221,221,kooche-ahvaz,31.34879005152594,48.68668556213379
222,222,laberit5,31.35849200000000,48.71309400000000
223,223,boote,34.08062020000000,49.68126860000000
224,224,amirkhan-arak,34.08487624940886,49.68135058879852
225,225,tishini-arak,34.07496921289569,49.72659140825271
226,226,caracal-arak,34.10302781078448,49.71055984497070
227,227,cinemaasrejadid-arak,34.08565818836489,49.68962788581848
228,228,payiz-arak,34.08232601195350,49.68105554580688
229,229,bernice,36.26607747754687,50.02361655235290
230,230,bamland_diako,36.26427600442358,49.98764812946319
231,231,diocafe-qazvin,36.30543458605477,50.01194491982460
232,232,nozhacafe-qazvin,36.27979801886269,50.00818915665150
233,233,sheed-cafe-qazvin,36.31490902229607,50.03502130508423
234,234,ersie-qazvin,36.26884500000000,50.00019000000000
235,235,karoma-cafe-qazvin,36.28569476254230,50.01067222414510
236,236,negarossaltaneh-qazvin,36.26892684219910,49.99987082998270
237,237,melo,35.71103003312440,51.40699736773968
238,238,honar_cafe,35.70176862018896,51.39896750450134
239,239,shahraan,35.76423710713317,51.28906533122063
240,240,khanehsaboo,35.69859720065121,51.40847861766815
241,241,baharak,35.72033501128514,51.40393495559692
243,243,synod,35.72422850449340,51.43373161554336
244,244,shaniya,35.70012808521338,51.42265902419611
245,245,robaee,35.72722092266432,51.40666155795945
246,246,cafekhamiz,35.80611913097716,51.41420788629239
247,247,harik,35.72402242455890,51.41953401405090
248,248,darya_baz,35.80878005763831,51.39272063970566
249,249,coffemarket,35.71231008026742,51.40742934958860
250,250,nanjam,35.72850968365368,51.40722658501839
251,251,natur,35.71127671027493,51.41268484531537
252,252,number6,35.78632662248370,51.42664924263954
253,253,sweet_angel_pastry,35.76890129960486,51.44132107547895
254,254,royalgalesi,35.72847001451857,51.43984082006555
255,255,idea_cafe,35.71524682209880,51.41782133791303
256,256,madaeen,35.76947530936090,51.42827063798900
257,257,avrin,35.70133538090142,51.39121424487877
258,258,belinski,35.71508241361593,51.42038226127624
259,259,barmancafe,35.80364850547243,51.45878296303498
260,260,beatbistro,35.72080537627403,51.41298606991768
261,261,caferack,35.76887193392411,51.37266039848327
262,262,sweet-blissniyavaran,35.80593120662460,51.45749164739770
263,263,chimney,35.77536845253725,51.46443486213684
264,264,shemroon_gharb,35.76676797312544,51.38042271137237
265,265,golliyancafe,35.77777628953115,51.42227455973625
266,266,bamerey,35.59183901502867,51.43730431795120
267,267,avani,35.74588300000000,51.40475800000000
268,268,noosheh,35.73032139579422,51.37373113422654
269,269,shemroon-baamland,35.74389525541517,51.22240465922005
270,270,viuna-tajrish,35.80576600000000,51.43074900000000
271,271,dantecaferestaurant,35.72531701850833,51.40791214473415
272,272,almond,35.74464500000000,51.39869600000000
273,273,parpirar,35.73750371138351,51.54358148574829
274,274,ava_plus,35.81216677529292,51.44954055547714
275,275,izar,35.75455730218963,51.43327255232953
276,276,captain_lounge,35.76202773648719,51.45501494407654
277,277,nattlisohrevardi,35.73675803306446,51.44267544150352
278,278,borito,35.73544409821620,51.43326759338379
279,279,cafe365,35.77855640002114,51.46425783634186
280,280,cafe_13,35.71133929097362,51.40441909432411
281,281,cafe_do_hasht,35.69860918083874,51.39618471264839
282,282,soora_coffee_restaurant,35.72568002251248,51.35868862452769
283,283,mescafe,35.81122664343496,51.46998248238734
284,284,clavier,35.74875879566002,51.41267694532871
285,285,crescendo,35.76665262636768,51.41688868403435
286,286,tehroonchi,35.75858011424196,51.40861809253692
287,287,insidecafe,35.78659642334057,51.42418026924133
288,288,cafe_snake,35.71234600407671,51.40808835625648
289,289,hobo_lounge,35.77482562080953,51.37770419940851
290,290,ariya_restaurant_sonati,35.75445104176342,51.30384296178818
291,291,hemera_tehran,35.76353384779870,51.45103052258491
292,292,herma_cafe,35.71514353412530,51.41841537480091
293,293,levicafe,35.74443546408430,51.39799520373344
294,294,emaratehoor,35.69076068329169,51.41002759337425
295,295,open_mindcafe,35.77174078276384,51.37988090515137
296,296,niki_caferestaurant,35.75333330395545,51.36277779936790
297,297,maronbar,35.73666223738736,51.32764354348183
298,298,mashacafe_evinhotel,35.78908551062546,51.39079213142395
299,299,odessa,35.73652834096379,51.49488598108291
300,300,dolitcafe,35.77604520182194,51.36259334937046
301,301,cafemostaghel,35.71826406573852,51.42060756683349
302,302,roseofpersia,35.80717256692227,51.44209206104278
303,303,bell,35.79040182334891,51.35922655463219
304,304,coffeemarat7hoz,35.73209112562421,51.49432539939880
305,305,alenda,35.71300262026565,51.42001211643219
306,306,nobu_tehran,35.81330217431619,51.40664264559746
307,307,grossi_restaurant,35.76197887431082,51.45989018430869
308,308,fisherabadcoffee,35.70839424293599,51.41840686524297
309,309,rota_lounge,35.71459513705824,51.40729442238808
310,310,rhinocafeclub,35.71762221414288,51.42721249206508
311,311,ronak_gardencafe,35.81857003935524,51.47593885660171
312,312,prisca_cafe_restaurant,35.71720570685358,51.41845643520355
313,313,cafe_beynolmelal,35.75888265777998,51.40479862689972
314,314,odette_cafe,35.77087410500048,51.33578673342610
315,315,cozylounge,35.75207159385771,51.40156512280752
316,316,baccara_cafe,35.70079142651995,51.40897052354006
317,317,fidar,35.73009868525945,51.31312221180634
318,318,baraz,35.73629142290885,51.33781708380548
319,319,sesenik,35.70928725666172,51.40662501553577
320,320,bonak_cafe,35.71028247354331,51.42963051795959
321,321,garas,35.76256481767979,51.46983432792568
322,322,cafe_clavier,35.77247307616652,51.36056900024414
323,323,cafe_darbar,35.71474485922267,51.41686052083969
324,324,routinecoffee,35.76285914828025,51.45498409867287
325,325,look_cafe,35.78373461968758,51.37729735679335
326,326,jiliz_viliz_romi,35.79047579730118,51.43520951271057
327,327,cafekonj,35.71271405826187,51.40303105115890
328,328,lounge12,35.76439492149789,51.45913013593877
329,329,maktabe_ghahve,35.82035346524666,51.45737528800964
330,330,cafe_karbon,35.71364344196023,51.42093479633331
331,331,zeehouse,35.69713056502009,51.40048707133986
332,332,braftto,35.77571255867939,51.41346444730570
333,333,lidopluss,35.72942116580867,51.49255245923996
334,334,wantedfastfood,35.71199482653147,51.42698988318443
335,335,zhiner_plus,35.78883951800537,51.41811434686173
336,336,loutra,35.78943580423950,51.41606390476227
337,337,52hz_cafe,35.76845027569429,51.46577328443527
339,339,cafe_bavar,35.71145961808717,51.41366332769394
340,340,diversolounge,35.76709877799346,51.47701308131218
341,341,interni_gharb,35.75371749408666,51.37409403920174
342,342,deer_factory,35.70176559689762,51.42222745206556
343,343,blackbox_artcenter,35.70957560872757,51.42255135240631
344,344,delin_cafe,35.72540653177637,51.43508210778236
345,345,coffee_come,35.80637751043576,51.38361990451813
346,346,laminerlounge,35.70475695777737,51.30820691585541
347,347,riva_platin,35.75187815341266,51.36498928070068
348,348,emcafe,35.79318232632282,51.42416283488273
349,349,eran_cafe,35.73113746217959,51.44049748778343
350,350,locadonut_niavaran,35.81521404518023,51.43566280603409
351,351,locadonut_fereshteh,35.79406562693585,51.42277747392654
352,352,locadonut_saadatabad,35.78167567746407,51.38512328267097
353,353,kohenor,35.77838666952004,51.26958847045898
354,354,cafevalhalla,35.76729464864840,51.34681731462478
355,355,cafekamak_pasdaran,35.76734143990016,51.45715266466141
356,356,cafekamak,35.72705617275025,51.40757810768588
357,357,ghahve_khan,35.81362299772668,51.47809669375419
358,358,lidocafe,35.78982308358090,51.49530440568924
359,359,shaghayegh_cafe,35.72750450949989,51.38817161321640
360,360,lavender_fereshteh,35.79631517084929,51.42342656850815
361,361,film_classic,35.70504119250867,51.41571588814258
362,362,raman_farahzadi,35.78504233609161,51.34582221508026
363,363,ruchik,35.76193054725452,51.40585629008947
364,364,hakubuffet,35.77004766848414,51.37538284063339
365,365,home_alborz,35.70199405626744,51.40985459089279
366,366,cafehaft7,35.71483197017071,51.42192453145981
367,367,shebrocafe,35.75426166956853,51.19263052940369
368,368,brunchetto,35.72507315470737,51.42646859289645
369,369,barsincoffee,35.75513535199775,51.37044875384157
370,370,adisheh_lounge1,35.77715937665268,51.35119065642357
371,371,golzar_cafe,35.72150656337072,51.43093943595886
372,372,cafe_chaai,35.71242876197063,51.42206937074661
373,373,avli,35.80209835036778,51.45817423909433
374,374,loafboxbakery,35.77715937665268,51.35118931531906
375,375,meri,35.70246834120152,51.42310604453087
376,376,blucasa2,35.75440748875920,51.47674912158614
377,377,blucasa3,35.79556048382436,51.44857813364151
378,378,yankee,35.71473614812262,51.41780868172645
379,379,c2,35.72548492114374,51.52478456497192
380,380,hezarafsan,35.70370277567202,51.40507355332374
381,381,philosophique,35.69710293042187,51.40519559383392
382,382,prologue_cafe,35.76345803551168,51.45618879390623
383,383,the_d_project_cafe,35.80812675747470,51.46919616860277
384,384,lavielounge,35.81324235963866,51.47506445646286
386,386,gravity,35.78352520865928,51.38273209333420
387,387,cafe_ashkboos,35.80548729198912,51.45404288455366
388,388,cafe_puzzle,35.71594807076676,51.39307469129562
389,389,rolexlounge,35.81627545076930,51.48400962352753
390,390,celato,35.77598042360311,51.46475892739411
391,391,chakmozniavaran,35.80960354241591,51.44401578919364
392,392,adora,35.80303507368770,51.44732091796271
393,393,karzin_mehrabad,35.70158518307016,51.31253581106030
394,394,kurehcafeandworkshop,35.75233636000636,51.36522799730301
395,395,karzin_enghelab,35.78253625880269,51.40026569366455
396,396,karzin_niavaran,35.81137938176286,51.47176265716553
397,397,karzin_gharb,35.75116630000000,51.38416171700000
398,398,cafeclover,35.71934200941194,51.42121709883213
399,399,gamerepublic,35.78637409623204,51.37723619874589
401,401,beliton,35.81372087579724,51.47568136453628
402,402,rabocaf,35.76911399519591,51.37260330698558
403,403,vario,35.72301670779065,51.51697933673858
404,404,vibecafevip,35.79108565915896,51.46314269405219
405,405,start_line,35.82006311754234,51.49265840649605
406,406,luigi_gisha,35.72725399493348,51.37920548878797
407,407,luigi_tirazhe,35.74823225026914,51.33087903015193
408,408,luigi_land,35.76459104690659,51.35157823562622
409,409,restaurant_sarashpaz_tuba,35.72983758745087,51.24807715415954
410,410,lavender_jordan,35.76808465539387,51.42001211643219
411,411,tissa_lounge,35.77072992388271,51.42062433063984
412,412,deiox_cafe,35.70339457723720,51.40112936496734
413,413,lanima_restaurant,35.74087822668462,51.30288541316986
414,414,wanderinginprague,35.75239493115246,51.36483042373386
415,415,little_italy,35.74979714395088,51.39739841222763
416,416,laluce_restaurant,35.80323309825366,51.46157562732696
417,417,kaiser_cafe_restaurants,35.81400580904917,51.45645394921303
418,418,majolcafe,35.71823793358963,51.36483103036880
419,419,indra,35.75715770888027,51.45570829510689
420,420,shahkuh,35.88740727316543,51.52811050415039
421,421,anobani,35.73519641929578,51.44114457499209
422,422,ebteda_cafe,35.71395401810486,51.40788340818764
423,423,khaneatlasi,35.70528839966938,51.40243291854858
424,424,mocafe,35.74391774079155,51.45799891211352
425,425,nezamiyeh_boutique_hotel,35.68947648839609,51.43027022480965
426,426,divaa_cafe,35.81773377280714,51.61172434687614
427,427,2shotcafe,35.70698724752696,51.39633089303970
428,428,shamsa_house,35.70292519853338,51.39202594757080
429,429,jayidigarbookcafe,35.77275476231787,51.43790109615565
430,430,justfresh,35.73743817076628,51.41481472673556
431,431,cafetehroonkandovan,35.70058316442784,51.41596801578998
432,432,mito,35.75828845247592,51.44220337271690
433,433,saless_book_cafe,35.75301632906317,51.19129446626804
434,434,sharbatkhaneh_iranmall,35.75386816335608,51.19101610424609
435,435,lounge_cinema,35.75378932546345,51.19116604328155
436,436,kavich_andarzgu,35.79611768682488,51.44375723733763
437,437,cafe_burka,35.72852983174415,51.39820335406629
438,438,vania_pastry_cafe,35.71868163453833,51.43643327057361
439,439,karno_food,35.77515736890880,51.36468887329101
440,440,interni,35.80628506149055,51.40131980180740
441,441,ketab_niyavaran,35.81209662798172,51.46284833550453
442,442,sambisam,35.81176220390186,51.44803047180176
443,443,saraye_arghavan,35.69354246323728,51.48011200621715
444,444,seen_college,35.70120066022924,51.41274848811932
445,445,lotus_restaurant,35.81196886934786,51.45896770974895
446,446,pegaharthouse,35.69950387793855,51.40986867249012
447,447,cafedaj,35.74449641903152,51.33287519216537
448,448,nonstop_cafe,35.76547085655349,51.39528349041939
449,449,khaneh_nafisa_saadatabad,35.77456714734337,51.35272393976594
450,450,vahebookcafe,35.71193221331825,51.42177432775497
451,451,cafe_clinic,35.73834408792226,51.49539291858673
452,452,razzaz_boutique,35.68058785522275,51.43306776881218
453,453,pera,35.79136891855534,51.42079934477806
454,454,osho_cafe,35.80646982657941,51.42371287744299
455,455,tehrooncafe_iranshahr,35.71393581174379,51.41918867826462
456,456,hozekashi,35.71114600495848,51.42126202583313
457,457,sinaancafe,35.73747540839233,51.38201996684074
458,458,redcafe_takeaway,35.76610635926195,51.34730815887451
459,459,coferesturan_theone,35.77485582039433,51.37766965031828
460,460,cafelanti,35.81125988232096,51.47008903742932
461,461,diba_mirdamad,35.75789448973632,51.43963918089866
462,462,dobarbakery2,35.75834504364847,51.40261530876160
463,463,dobarbakery,35.76694643381725,51.39928400516510
464,464,alsocafe,35.69315249343290,51.41018016285650
465,465,havaliedelbar,35.80303622845923,51.42246097326279
466,466,serbon,35.77064178595471,51.46039545536041
467,467,hasht_behesht,35.72148260987606,51.34047523140907
468,468,bal_iranmal,35.75286421943905,51.19246959686279
469,469,bal_jordan,35.77090184696738,51.42067462205887
470,470,pets,35.76473849867646,51.35232657194137
471,471,matsu_lounge,35.78556508286638,51.42740428447723
472,472,lamoure_org,35.77155145172313,51.35736912488937
473,473,baran_mansion,35.79820441418253,51.44615778860676
474,474,roomeroonrestaurant,35.77016409844799,51.42218336462974
475,475,pastofood,35.78216417547333,51.37672126293182
476,476,paypar_complex,35.71165671459563,51.33358061313629
477,477,houseofcard,35.80256526172258,51.42116278409958
478,478,rischee29,35.78928946866501,51.42375256090283
479,479,rosettcafe,35.77911998972696,51.37684464454651
480,480,chaikenar,35.72090119102393,51.40075117349624
481,481,garnet,35.79659907878020,51.44482120871544
482,482,cafe_baran1,35.81241972800554,51.43328503209199
483,483,central_caferestaurant,35.72142163731169,51.43330380320549
484,484,cafe_lyar,35.81403952245789,51.46189749240875
485,485,cafe_ceramic,35.81560609264721,51.47079169750213
486,486,cafe_theatre,35.69886512077860,51.40611290931702
487,487,cafe_greenbean,35.70183994791968,51.42247026650052
488,488,pantheon_cafe_resturant,35.75986863700966,51.40518888831138
489,489,cafe__zehn,35.69973422133679,51.40422999858856
490,490,lorenzo_lounge,35.80940216303937,51.39685928821564
491,491,cafediamond,35.70348714579687,51.41622751951218
492,492,hattrick_cafe,35.72384090575608,51.40504404902458
493,493,cafe_boardica,35.71171007213008,51.41788110136986
494,494,fekrkade_complex_opal,35.77705927746270,51.35170966386795
495,495,mysterybox,35.74617810407876,51.57179161906242
496,496,pol_art,35.71393592357713,51.40439840764618
497,497,moon_lightlounge,35.74176644232010,51.59195142457314
498,498,cafe_arsh,35.70683914428246,51.43445983529091
499,499,royalrosecafe,35.81456914735483,51.44317835569382
500,500,ravicafegallery,35.80536491671174,51.47944718599319
501,501,shar_lounge,35.74394564584963,51.41437277197838
502,502,maya_cottage,35.70704387516535,51.39043003320694
503,503,schonbrunn,35.75310583640304,51.19199752807617
504,504,amore_cafee,35.70052272041425,51.41902171075344
505,505,objet,35.75828845247592,51.40205740928650
506,506,pensocafe,35.70743843431351,51.39141887856078
507,507,toos_cafe,35.80012429265502,51.45242650245837
508,508,paprika__house,35.70444114022070,51.41672238707542
509,509,marjolainegateau,35.78342887859551,51.45976727349896
510,510,delpiano_caferestaurant,35.78523435481730,51.38853404670954
511,511,novel_cafe_restaurant,35.70040401041638,51.31940245628357
512,512,rion_restaurant,35.79451815152497,51.35832935571670
513,513,mahed,35.77010089962590,51.34835171482828
514,514,bluma,35.80538123142830,51.41904920339584
515,515,dam_cafe,35.77171902059818,51.42349228262901
516,516,cafeviunasohrevardi,35.73704106507348,51.44287526607513
517,517,dibacheh_mansion,35.70745070023469,51.39959991286006
518,518,morralounge,35.72321704203030,51.31764292716980
519,519,mann_book_cafe,35.78997755964559,51.45730555057525
520,520,zi_cafee,35.79684763335809,51.52519293129444
521,521,hug_cafe_house,35.81662888698124,51.46267265081405
522,522,theyard,35.74430211889613,51.39813147914535
523,523,cafeneshin1,35.69914937651489,51.39711409807205
524,524,carshow,35.75453491188495,51.19274672868744
525,525,avana_cafe,35.63924270411944,51.40175968408584
526,526,roomeroon,35.77016627470737,51.42218470573425
527,527,zahira_lounge,35.72558181900517,51.51807233691215
528,528,ruby,35.81175894122098,51.46506518125534
529,529,trend,35.74279837089897,51.22211873531341
530,530,impresso,35.81369042485490,51.47166341543197
531,531,nicki_lounge,35.79944517253026,51.43970422446728
532,532,injacafe,35.71941822709944,51.41584530472755
533,533,abtin_icecream,35.70331458614808,51.45313230562085
534,534,hoomaan,35.76266435493539,51.44180640578270
535,535,scoffee,35.72967357519356,51.49401129469723
536,536,jaryan,35.79928473234962,51.42412662506103
538,538,lotus_fruitjuice,35.81607915705508,51.48362673819065
539,539,cafe08,35.79914876584116,51.46689981222153
540,540,link_andarzgo,35.79960670011368,51.45153343677521
541,541,elva_seyedkhandan,35.74452829215309,51.44333502223835
542,542,telma_valiasr,35.69959046099608,51.40976607799530
543,543,roostar_bakery,35.80477269023174,51.47680319845676
544,544,cityteras,35.77736392677951,51.28336966037750
545,545,jeunviecafe,35.78769574357321,51.43592432141304
546,546,ctplus,35.75588764373675,51.37682452797890
547,547,saadabad,35.81457676000724,51.42514050006866
548,548,kaya1,35.75437376925557,51.36315800249576
549,549,aknoon_evin,35.79472483257132,51.39079213142395
550,550,carvel_andarzgoo,35.79596490755971,51.44355654716492
551,551,zhabiz_lounge,35.73953266037861,51.40944008466768
552,552,hamneshinn,35.74177509439865,51.49403244040510
553,553,mahur_shahrakgharb1,35.76553778045120,51.35559350252151
554,554,hub,35.69966778666610,51.44003212451935
555,555,klendygelato,35.73968899849939,51.40546247363090
556,556,cafe_comma,35.73117725225446,51.43879950537603
557,557,delvazcafe,35.75968580734683,51.38404369354248
558,558,saddleroom,35.76378304988335,51.35758638381958
559,559,viggocoffee,35.80497899788529,51.43477313069836
560,560,vitamine_babataher,35.67494153388337,51.40775978565216
561,561,groke_cafe,35.76027347262506,51.28417164087295
562,562,lozan,35.71008101783195,51.41586273908615
563,563,container2,35.78571739137356,51.38445675373077
564,564,sizdah50,35.78727146542373,51.37325987219810
565,565,risotto_zaferanih,35.80888664247605,51.40935301780701
566,566,emaratpelak85,35.73583164049200,51.40900433063507
567,567,dreamlandclub,35.72419097903579,51.31342559970211
568,568,tehran_tehran1,35.69317424955978,51.42477839022511
569,569,elmaso,35.74347269627200,51.54298670589924
570,570,kheshte_behesht,35.69132489469821,51.47228971123695
571,571,tarikh,35.70758836963549,51.39876902103424
572,572,unis,35.75653192953071,51.54614299535751
573,573,sayda_shahran,35.77726165178188,51.29349768161774
574,574,sweetbar_ir,35.67382703814591,51.44203305244446
575,575,radiocity_lounge,35.80814924648647,51.41917861998081
576,576,la_maison_du,35.77269613596712,51.45198941230774
577,577,bellobistro,35.72896809476300,51.31624182506202
578,578,cafe40,35.77153186572769,51.37980915606022
579,579,cynthia,35.79610686227774,51.47601462900638
580,580,eliasaam,35.73754290012394,51.11815094947815
581,581,rackan,35.77809072829246,51.32214903831482
582,582,koli_cafe,35.77218901008507,51.37488407102710
583,583,pagani,35.76173119025713,51.46155618131161
584,584,leevan_zoghalchi,35.71446937022272,51.37127101421356
585,585,dandehshisha,35.79559304800089,51.44313941809655
586,586,caffenoon,35.69953503089190,51.41185766543422
587,587,terasideh,35.71975358405844,51.41972243785858
588,588,restaurantyasmina,35.77330655495428,51.37027725577354
589,589,sky_lounge,35.79321713638507,51.35653495788574
590,590,lertcafe,35.80533663786173,51.47489547729492
591,591,arnoosh_home,35.71453034810717,51.42058610916138
592,592,24saadatabad,35.77655660353789,51.36224001646042
593,593,miraarthouse,35.69722545727805,51.40010006725788
594,594,corleone,35.77021741678577,51.37247800827026
595,595,danteh_marzdaran,35.73626460242747,51.33925567011112
596,596,yar_mansion,35.70538096603010,51.40955954790115
597,597,fermo,35.75210381043364,51.41233066114905
598,598,shaparak_jomhori,35.69771501826016,51.37856394052505
599,599,spinach,35.77722248259901,51.35129526257515
600,600,samaaflak,35.73373497073605,51.34550839662552
601,601,dorche_opal,35.77722193858244,51.35129526257515
602,602,pirashki_khosravi,35.69494098114851,51.41559720039368
603,603,rahas,35.70612391101267,51.40471585195561
604,604,ivancafe,35.69691287728133,51.42242275178432
605,605,tierra,35.77344474184638,51.44914358854294
606,606,yaserkhan,35.75839510503675,51.40035219490528
607,607,sora_shahrerey,35.58545023455641,51.44943729043007
608,608,cafefarvahar,35.76421615907261,51.47511541843414
609,609,pooli,35.76838389832417,51.47397413849830
610,610,feloreh,35.70924469894807,51.40639588236809
611,611,manza,35.70865556800812,51.41570985317230
612,612,vip_kazemi,35.71843392449738,51.24545931816101
613,613,cafebeniz,35.79162238475629,51.42654597759247
614,614,angeram,35.71366016048024,51.39826282222785
615,615,marool,35.70420012491156,51.43174328852133
616,616,nuck,35.71215979850126,51.42643399536610
617,617,nara,35.70553576484093,51.39056091985945
618,618,cluna_firoze,35.70932419317770,51.40662789344787
619,619,chiakoo_pasadaran,35.75516716932239,51.45291477441788
620,620,delsa_pasadaran,35.75709724632563,51.45314848316931
621,621,lena_tehranpars,35.72830253218643,51.51679694652557
622,622,viuna_rosha,35.80777347642760,51.44642651081085
623,623,kaarizno,35.70530255688445,51.41934558749199
624,624,nikou,35.70994816567885,51.41903176903725
625,625,aroma_shahrakgolestan,35.72964924538303,51.24786794185638
626,626,babel,35.70771414732928,51.39784969389438
627,627,hoorfamily,35.71596004834692,51.42703816294670
628,628,boncoffee,35.73131763577152,51.41107633709907
629,629,niwayard,35.77035887342701,51.46149516105652
630,630,dafaraz,35.73005750074684,51.24853849411011
631,631,narvan_enghelab,35.70129691323974,51.41515952773955
632,632,chekad,35.74460430861507,51.39915712902726
633,633,doppio,35.71781380000000,51.40779980000000
634,634,karkhane,35.76734905707807,51.39417976140976
635,635,cafe_rosamond,35.77803850325560,51.30936563014984
636,636,hero_come,35.75970077109990,51.33661720901730
637,637,de_france,35.74871090505564,51.41272991895676
638,638,cafe_florence,35.73509368225748,51.35838148596354
639,639,jahroumi,35.67697011341262,51.40815336724604
640,640,narin_tehranpars,35.74389557537142,51.52754724025726
641,641,hoorsun_bistro,35.77192412877311,51.42058610916138
642,642,galerry_rahimiyeh,35.67419276353821,51.41877146596587
643,643,hama,35.74723607801842,51.24010965228081
644,644,liza,35.76812493239831,51.35840049599429
645,645,ghasr_iranian,35.69674569549097,51.38073384761810
646,646,rotinda,35.79365878772546,51.43827393651008
647,647,hoora_gallery,35.69839026985539,51.40661314129829
648,648,zeus,35.78188891972593,51.37971058487892
649,649,zanan_kochak,35.72757745324253,51.40774101018905
650,650,wolfsden,35.76839586801795,51.46244466304779
651,651,raf,35.80626657168860,51.43955133855343
652,652,cafeboard,35.72426987728092,51.43371820449829
653,653,takhtjamshid,35.74171256243949,51.44652692467687
654,654,westeria,35.80876809402513,51.43359616398811
655,655,lunico,35.72777710509978,51.28787227755288
656,656,byte,35.70537769898392,51.34883433580398
657,657,bigharar,35.74574598516377,51.47695541381836
658,658,chino,35.76155667154044,51.33557187298778
659,659,entezar,35.78023556190758,51.45385386380269
660,660,faramoshi,35.72183537879683,51.43432974815369
661,661,carpet,35.68176217015216,51.39832109212875
662,662,ahraar,35.69072147153982,51.47954642772674
663,663,stage,35.74825376601823,51.20605230331421
664,664,sweeney,35.72847429103377,51.28580923694254
665,665,shine_toba,35.73002048568013,51.24873161315918
666,666,coyoti,35.70130794448126,51.43521353602409
667,667,dreamercafe,35.71187796630077,51.42185576693741
668,668,rosario,35.72554935673058,51.52483390132409
669,669,local,35.80884531367839,51.38930082321167
670,670,taksin2,35.77096223758296,51.35603606700897
671,671,nezamiyeh,35.68947812224497,51.43027156591415
672,672,delvar,35.81296657255366,51.45116026330344
673,673,lattehbaz,35.70404908909947,51.40385046601295
674,674,concept,35.70014589724229,51.40804409980774
675,675,hel,35.79972308678836,51.47808998823166
676,676,miyan,35.69968739034518,51.38968035578728
677,677,sarhanghouse,35.70007292838757,51.41774564981460
678,678,persiancatmuseum,35.70754753267923,51.39814808964729
679,679,mizho_ferdwos,35.72281528427004,51.32013469934463
680,680,koranj,35.76753622179188,51.47224277257919
681,681,hononoydonuts_shahrakgharb,35.76428906918162,51.35061666369438
682,682,kalooshe,35.77990770300752,51.39391422271728
683,683,sinak,35.77339759701229,51.37791198098354
684,684,bittersweet1,35.71000588016600,51.39863491058349
685,685,ghavam,35.69226814269198,51.41419239342213
686,686,armenia_cafe,35.72364057308520,51.43267750740051
687,687,vadood,35.75157814189502,51.47970684076056
688,688,direct,35.71772726612671,51.34315609931946
689,689,rozhda,35.76620647223939,51.39524191617966
690,690,rosemilo,35.79501744850180,51.52171611785889
691,691,chalet,35.77654789919952,51.28686189651489
692,692,ghoghnos,35.70431699090757,51.39862418174744
693,693,westeak,35.77714740827791,51.35146826505661
694,694,donutto_pasdaran,35.77504801866446,51.46155618131161
695,695,pizza_pala,35.81191065574041,51.45951837301254
696,696,zaban_ghandi,35.73905709474030,51.44346803426742
697,697,haft_aseman2,35.77101229103138,51.36624388396740
698,698,emarategowd,35.70427342969924,51.42141759395599
699,699,el_soldado,35.75014978745867,51.39747284352779
700,700,record,35.75295346543009,51.37440115213394
701,701,sofre_gallery_goharaneh,35.67741777222500,51.42759472131729
702,702,ricotta,35.76760151170468,51.37527957558632
703,703,saliztehranpars,35.73450136109795,51.52980566024780
704,704,saliz_farjam,35.73574149749795,51.52777527650215
705,705,sevda_atana,35.70630825722975,51.40220560133457
706,706,sorrisoicecream,35.75673326777148,51.44763149321079
707,707,moncheri,35.76625740123143,51.35733422178300
708,708,doberaa_pasdaran,35.76889641723651,51.46615684032440
709,709,casa_delchef,35.72628078660368,51.52391955256462
710,710,zarafe_tehranpars,35.74228825482508,51.56452173303753
711,711,mani_gisha,35.73122999851638,51.37872353196144
712,712,shahriyar_shariati,35.73802622633656,51.44500225782394
713,713,dice,35.71603409152973,51.41673177480697
714,714,mingoo,35.70755597247723,51.39015894255845
715,715,ketabrangi,35.70473953339304,51.39185428619385
716,716,emarat_atlasi,35.70520255757866,51.40219952529902
717,717,gol_hakimieh,35.74976449169520,51.57571971416473
718,718,boshkeh_satari,35.73840173353947,51.31369380740088
719,719,parllan,35.73181243063871,51.40253484249115
720,720,iman,35.70692190789420,51.39162898063660
721,721,gade,35.70655620000000,51.41756820000000
722,722,raimoon,35.77619256852760,51.43608202949858
723,723,dast,35.76075448430738,51.37020349502563
724,724,parseh_enghelab,35.69996892042697,51.40395507216453
725,725,sezelei,35.69971684029862,51.40302682401739
726,726,segah,35.70565088733307,51.39038594525980
727,727,gilardino,35.76073054261820,51.33487008512020
728,728,godar_enghelab,35.70663441287380,51.39367818832397
729,729,aroma_beheshti,35.72791919932970,51.41694804648498
730,730,forogh_enghelab,35.70150724422756,51.41032934188843
731,731,chobik,35.81591222545367,51.48393720388412
732,732,3tkarimkhan,35.71143675050493,51.41402006149292
733,733,code,35.70441282548209,51.42045535147190
734,734,khiabun,35.73635906508162,51.43276870250702
735,735,offset,35.70105854682921,51.40982910990715
736,736,dafineh,35.69920709882033,51.43700122833252
737,737,hizom_cafe,35.73939890032483,51.47941567003727
738,738,bamboo_saadatabad,35.78160604721385,51.37569263577461
739,739,kolbeh_fadak,35.72794108224664,51.47725582122803
740,740,bastanireza_narmak,35.72696123982278,51.48090362548828
741,741,haa_valiasr,35.70007401747545,51.40440702438354
742,742,silk_enghelab,35.70537225390662,51.39058157801628
743,743,rocca_lounge,35.79978291164826,51.47812083363533
744,744,sanglaj_topkhane,35.68262492112781,51.41518950462341
745,745,selini,35.73887530582213,51.50075197219848
746,746,akoa_piruzi,35.69203505473350,51.47939220070839
747,747,siahosefid,35.60429503249008,51.43438293423344
748,748,zhelino_abozar,35.65731368284408,51.48175120353699
749,749,g_pasdaran,35.78043864346745,51.45559698343277
750,750,syda_saadatabad,35.77529446452508,51.38459086418152
751,751,khosro,35.71926688047716,51.34619571268558
752,752,ketab_iranmal,35.75300788366821,51.19040966033935
753,753,khaneh_doost_kojast,35.69990980000000,51.40305150000000
754,754,pelak_felestin,35.70782794602408,51.40380084514618
755,755,sadaf_tehranpars,35.75054566629924,51.51834332778560
756,756,maha,35.76725982723389,51.37529432773590
757,757,bijan_cafe,35.71745967162182,51.41529076081463
758,758,shadan,35.72301126391840,51.32077574729919
759,759,cama,35.73377851584060,51.52854368090629
760,760,chowgan,35.74198960831774,51.44428275525570
761,761,zeecook,35.70539185618312,51.31278276443481
762,762,ram,35.72330305494601,51.42927110195160
763,763,lussen,35.76006017239629,51.53450757265091
764,764,nava,35.76564279100645,51.39552086591720
765,765,boardland,35.77899301491090,51.36500470415683
766,766,bazdid,35.72349685585882,51.42698585987091
767,767,arabika,35.72297424557731,51.33547693490982
768,768,murph,35.69947610599451,51.40380218625069
769,769,emaratedel,35.70447598911594,51.40313029289245
770,770,hich_cafe,35.71126687683130,51.40369087457657
771,771,telma,35.70220043318136,51.42018377780914
772,772,sitka,35.71394421760225,51.40781398043271
773,773,703_resturant,35.73399375334298,51.34526941206923
774,774,alakdolak,35.79654686590351,51.44347473978996
775,775,viuna_opalsenter,35.77696168126874,51.35160372243058
776,776,ozhen,35.73120713660788,51.43555954098701
777,777,bord_motahari,35.72426116722216,51.43373161554336
778,778,shemroon_ekbatan,35.70475860000000,51.30901360000000
779,779,amante,35.80386394845173,51.39678686857223
780,780,fantino,35.79787937129087,51.44857496023178
781,781,bilion,35.76475264532637,51.33712917566299
782,782,terraceparkcafe,35.77218853800055,51.37501470744610
783,783,didar_pasdaran,35.75544938072375,51.45384523377015
784,784,taak_piroozi,35.65817669810283,51.47368311882019
785,785,bcafe_zaferanieh,35.79233110677434,51.41005240380764
786,786,viuna_pelatin,35.75266388945503,51.36490938410918
787,787,istgah_laleh,35.71266287923135,51.39008402824402
788,788,deer,35.75332024363511,51.37474447488785
789,789,ghahvesanto,35.67991463163435,51.42257630825043
790,790,alicafe,35.73164260040371,51.49242103099823
791,791,elba,35.73287277276288,51.32659211754799
792,792,kava,35.74149650946868,51.30021929740906
793,793,shincafe,35.69501613301330,51.40988945960998
794,794,donutto_asp,35.74504718840275,51.40002831816673
795,795,zhozak_pasdaran,35.77059608476838,51.46713450551033
796,796,zhozek_sohrevardi,35.73560521152621,51.43191039562225
797,797,zhozek_tehranpars,35.72703091790431,51.51854038238525
798,798,zhozak_velenjak,35.80678296225955,51.39291914186981
799,799,plus-dadman,35.76378196166633,51.34904623031616
800,800,nanbersan,35.68170116720479,51.40897750854492
801,801,nesfjahan-enghelab,35.70206920148527,51.42289951443672
802,802,charli-sadeghiye,35.72413487126332,51.33977182209492
803,803,moon-darband,35.81714595941925,51.43184103455576
804,804,sharona,35.73898198439929,51.44355654716492
805,805,miiv-jamcenter,35.81467246186133,51.45966924726963
806,806,chahar-o-chahar,35.76204514834159,51.32713794708252
807,807,ghooli-cafe,35.70178713428705,51.41446597874164
808,808,jazz-cafe,35.70364614566025,51.40192732214928
809,809,zhowancafe,35.77122066537487,51.37694120407104
810,810,leparc,35.72940864590859,51.40849471092224
811,811,persian-sadatabad,35.77853496354110,51.36031655768886
812,812,goldon_cafe,35.70251789319603,51.39806896448135
813,813,patogh-hoseiniye-ershad,35.75523550755732,51.44817524376708
814,814,patogh-seidkhandan,35.74263727214374,51.44711852073669
815,815,surena_cafe,35.70727147430626,51.39775112271309
816,816,tehran-fars,35.74919416346886,51.53687596321106
817,817,sayda-shahran,35.77724859538973,51.29350841045379
818,818,wafflelatte-falah,35.65442926998281,51.36691510677338
819,819,tiyanaz,35.73209765752623,51.49898171424866
820,820,notellaland,35.75574180805255,51.45283699035644
821,821,rivazh,35.71934963118397,51.34962290525436
822,822,sahi,35.71326829881170,51.40693548617082
823,823,nelson_club,35.77858568491168,51.41736975914091
824,824,mahfelsonatisoltani,35.76342720212654,51.30462616682052
825,825,farnoosh,35.68199377881200,51.38321028469943
826,826,lawrence,35.76781479171308,51.34717673063278
827,827,parsi,35.73014894966148,51.43591761589050
828,828,sooremehr,35.70120448266790,51.39271192252636
829,829,pelato,35.70030926010776,51.31306707859039
830,830,cafe-tabakhi-kaj,35.73577721051095,51.52254894375801
831,831,4bagh,35.75027386535832,51.31016492843628
832,832,boardgame,35.70003807756771,51.39704436063766
833,833,sorriso_gelato,35.72127464968788,51.31531476974487
834,834,galeria,35.72142381490408,51.39677479863167
835,835,risterto,35.71623294573025,51.42672274191363
836,836,benellilounge,35.80184303478992,51.45672082901001
837,837,brazza-motahari,35.71910873690007,51.43947884846636
838,838,donutto-bamland,35.74563278485873,51.22182369232178
839,839,blacklounge-bamland,35.74232214897393,51.22205369174480
840,840,ebony,35.80081080447678,51.46167017519474
841,841,cafe41,35.76119551507641,51.40396782948642
842,842,cafese,35.70821126674812,51.41568839550018
843,843,salomba,35.72580936520509,51.30757927894592
844,844,khancookk,35.75754328568116,51.44341470739027
845,845,darbar_cafe,35.71479930000000,51.41691870000000
846,846,queen,35.80846247747780,51.50134474039078
847,847,etefagh,35.71056832198963,51.42262861132622
848,848,buoncibo,35.76046065398736,51.33074015378952
849,849,zhiyan,35.81578171643002,51.48406520877734
850,850,dorehami_emamzadehhasan,35.66456568792161,51.35770199938952
851,851,ahoon,35.71004290453199,51.40450626611709
852,852,cluna_taleghani,35.70478962848767,51.40593051910400
853,853,dallatera,35.77400510355387,51.44956737756729
854,854,salomeh,35.65513430987100,51.48132741451263
855,855,rum-bistro,35.71552142184739,51.42358841587679
856,856,vcafe-pasdaran,35.76582995973526,51.45621523261070
857,857,herman,35.71924188342127,51.42485386312421
858,858,baba-cafe,35.74366862509155,51.22142001986503
859,859,shokofeh_farahzad,35.78110884193584,51.34238362312317
860,860,nonvaghahve,35.79505433500441,51.52167620250657
861,861,dake_shahrakgolestan,35.74944291232254,51.24764424173952
862,862,mahestan-kan,35.77059390852075,51.26918077468872
863,863,piansa,35.70797495845150,51.40168994665146
864,864,khanefamouri,35.69558684921178,51.41000211238861
865,865,fresco,35.81172957708697,51.45016282796860
866,866,mandela_jordan,35.76730226583079,51.41982838511467
867,867,platform934,35.70019381705085,51.40250936150551
868,868,roshanan,35.80530627853445,51.44492454773626
869,869,cafetehraan,35.74509834662918,51.39043539762497
870,870,pelak5_tehransar,35.70382474786837,51.25699281692505
871,871,do_zardeh,35.70089545776800,51.40279568731780
872,872,lamiz_farmaniyeh,35.79920206474020,51.47317886352539
873,873,sheys,35.76236835519658,51.39974668622017
874,874,honar_tajrobe,35.77302256381586,51.43818005919456
875,875,balkon,35.77547977826669,51.36424934290471
876,876,hanna-boutiquehotel,35.69680886519890,51.41140624880791
877,877,rock_somayeh,35.70577791114646,51.42426878213882
878,878,macklly-nirohavaee,35.69920284446095,51.48686526884478
879,879,rouhi_tajrish,35.80629485020750,51.43117748200893
880,880,cafechimney-vozara,35.72790297748874,51.41563005745411
881,881,rolinja,35.74282884900518,51.22196316719055
882,882,samiya,35.74026864740822,51.43436729907989
883,883,poshtboom_keshavarz,35.70970206192493,51.39897018671036
884,884,nivan,35.75995352206745,51.43410980701446
885,885,sepidar,35.78139715609730,51.35453000664710
886,886,salatin,35.80435992371012,51.45689584314823
887,887,local2,35.80884531367839,51.38930082321167
888,888,ec1838b1-5d95-4ad6-bc79-767fbba060fd,35.75365219277876,51.19194388389587
889,889,hiro,35.79023891723330,51.35310273617510
890,890,house1307,35.70437144238450,51.41316711902618
891,891,viuna_paladiom,35.79754677204148,51.41327816711691
892,892,lavenderfarmaniye,35.80012851224379,51.46733474375810
893,893,shahrzad2,35.69699490572420,51.40740710394770
894,894,tezburrger,35.69471116848487,51.42603367567062
895,895,denja,35.79737846874920,51.41330102107690
896,896,chimney_niavaran,35.80975263897980,51.44481450319290
897,897,mito_arg,35.80941412655700,51.44420396536590
898,898,nesen,35.73657263287715,51.32834097520572
899,899,bookalounge,35.81724178927366,51.43708434911969
900,900,simoni_pirozi,35.65861038154269,51.46974161267280
901,901,sweet_dream,35.74154794210720,51.40396479517220
902,902,rocco_cafe_arg,35.80796652783766,51.42651647329330
903,903,baharbeheshti,35.73023822111970,51.42127275466919
904,904,tetoo,35.72354203971172,51.31583645939827
905,905,donutto,35.81517353531080,51.43568258732560
906,906,un_valiasr,35.71052095288939,51.40582188963890
907,907,zhira,35.73113697409775,51.43903820256105
908,908,leto,35.71209337418485,51.42669349908829
909,909,florian,35.80794423178327,51.42631530761719
910,910,dorreh,35.77553982156570,51.36428553611040
911,911,ist,35.71304450000000,51.42028220000000
912,912,dejavu_ardebili,35.80055084130363,51.41550064086914
913,913,khancafe_tehranpars,35.72665095387582,51.52573809027672
914,914,ero,35.71583499761935,51.34769115686527
915,915,fekr_daneshgah,35.70047806805046,51.39777794480324
916,916,chimney-dadman,35.76561885078844,51.35622650384903
917,917,hermo_tehranpars,35.74496228744377,51.54420644044876
918,918,sicas,35.72674029649948,51.52912957717319
919,919,bamdad1,35.69838046785702,51.40472888946533
920,920,viuna_kourosh,35.73863579984810,51.31354894502442
921,921,bab_al_bahr,35.74276107836639,51.22185449009066
922,922,cluna_parkway,35.78993322939720,51.41580171883110
923,923,bamino_baqketab,35.75110760000000,51.43178930000000
924,924,lime_golestan,35.75300244184606,51.37522459030151
925,925,ch_cafe,35.70935686201621,51.45202696323395
926,926,kooche_moka,35.71981673553564,51.41914308071136
927,927,thisfun,35.70916302671174,51.41323417425155
928,928,cam_cafe,35.72248351763540,51.40911337924320
929,929,benitacafe_plus,35.76726145948804,51.37295007705688
930,930,johaina,35.72391167532917,51.33175671100616
931,931,clunavanak2,35.75689923539767,51.40979558229446
932,932,lamiz_pasdaran,35.76862873261149,51.45840793848038
933,933,lumiere,35.73414211653416,51.34511679410934
934,934,love_ice_cream,35.76989097742260,51.30422651767731
935,935,dopiano,35.77539952699108,51.46425325492942
936,936,amirchocolate_saadatabad,35.78701417769913,51.37336850166321
937,937,downtown_planet,35.77112436711687,51.42064176499843
938,938,koolak1,35.73747879285530,51.40381369852800
939,939,sakura,35.80483622873028,51.47654787203032
940,940,rebelan,35.80862670573307,51.42942264676094
941,941,movaazi,35.70426471745473,51.39068149030208
942,942,xigan,35.70571420403873,51.39046490192413
943,943,cacta,35.75245499263747,51.30664050579071
944,944,moon_lounge,35.80114581852486,51.41626775264740
945,945,chargoosh_cafe,35.76363831688991,51.29306316375732
946,946,biscotti,35.72822850040461,51.41786903142929
947,947,h_and_h,35.72585944705656,51.38132125139236
948,948,foodmarket_avacenter,35.80477323405972,51.47680252790451
949,949,negima,35.79552925184148,51.45016618072986
950,950,te_cafe,35.75755711677900,51.44768446683884
951,951,mehre_nikta,35.77581237916448,51.41361840069294
952,952,ocean,35.73441862612993,51.37683391571045
953,953,iran_nutella,35.81594485054994,51.48413568735123
954,954,mazzo_plus,35.72353496272441,51.31567552685737
955,955,kassab_tajrish,35.81360722847069,51.43001809716225
956,956,nakhlestan,35.70611564169963,51.40502051438705
957,957,epicure,35.75463170677062,51.37460768222809
958,958,fanus_tarasht,35.71578365107538,51.34302198886871
959,959,bajoran,35.79529918549837,51.53268098831177
960,960,seencoffee_niloofar,35.73711726582711,51.43266409635544
961,961,karzin_pasdaran,35.76883983356975,51.46235883235931
962,962,icepack,35.69139787155775,51.47344440221786
963,963,malas,35.72124200000000,51.38916400000000
964,964,glaris,35.76454806275986,51.45917236804962
965,965,barizan,35.72909292603864,51.49494901299476
966,966,goleyakh_piruzi,35.69085544494577,51.47284626960754
967,967,crepe_rahechoobi,35.75233037395150,51.41839306801560
968,968,gelato_plus,35.80848910000000,51.42653190000000
969,969,rozhano,35.73080340000000,51.43587250000000
970,970,emza,35.74236358421932,51.22224832619361
971,971,baalaa,35.71860106080732,51.41597338020801
972,972,tomo_samsenter,35.79103277543668,51.41951054334640
973,973,vicolo_bamland,35.74692342206020,51.22135531157260
974,974,darolkhelafe,35.68953530693468,51.40708386898041
975,975,viuna_argtajrish,35.80787951880953,51.42707839608192
976,976,qamar,35.74499711861737,51.22165471315384
977,977,varf,35.74527059722440,51.22159168124200
978,978,roj,35.74444199497373,51.22165739536285
979,979,haft_cheshmeh1,35.72302432921113,51.40028715133667
980,980,mehraban,35.70216177158377,51.44105002284050
981,981,bapook,35.79799467274731,51.44023865461349
982,982,viuna_saadatabad,35.78972517606046,51.37509047985077
983,983,tehranbeen,35.77510840613142,51.36453062295914
984,984,cut_cafe,35.71985811061426,51.42357140779495
985,985,cluna,35.70550729171364,51.39058962464332
986,986,cafe_chance,35.76531905335732,51.48159630596638
987,987,hesekhob1,35.73156312843857,51.49361528456211
988,988,mazeh,35.80603820622360,51.43014601758320
989,989,shahoo,35.74840785378553,51.40101951889210
990,990,royal_lounge,35.74445015858477,51.22124902904034
991,991,cheraghan,35.74377366451013,51.22169494628906
992,992,illycaffe,35.74424389108916,51.22202754020691
993,993,libro,35.79803448008020,51.41293904356310
994,994,downtism,35.74888069888655,51.22048258781433
995,995,zofa,35.75129646165018,51.43715637884816
996,996,bonelli,35.73452394516598,51.35395763895292
997,997,delnavazan_sohrevardi,35.73334034214037,51.44032381474972
998,998,morocco,35.78859820000000,51.34835160000000
999,999,shandiz_aayani,35.81626185703742,51.49004124104977
1000,1000,micmac,35.74939007820591,51.47419542074203
1001,1001,creme,35.77051556356670,51.37925863265991
1002,1002,mansour_tehranpars,35.72756356706117,51.52584233228151
1003,1003,mamali_juicebar,35.81234768780550,51.45711294104760
1004,1004,palizi,35.73867065672301,51.44405543804169
1005,1005,babarahim,35.70864127257370,51.37446039968320
1006,1006,wish,35.70244646088593,51.39778278857375
1007,1007,iranshahrgallery,35.70966830970880,51.42237884164297
1008,1008,maana,35.70772000000000,51.39674800000000
1009,1009,riader,35.76128772915334,51.38008207082748
1010,1010,serayala,35.79944653219140,51.47286806255580
1011,1011,75,35.75766240988378,51.44173331138575
1012,1012,colonel,35.74135717855618,51.44638627767563
1013,1013,godo_yas,35.70457182349934,51.41639381647110
1014,1014,naghsh_vesal,35.70810236900263,51.39727234840393
1015,1015,siro,35.74019163326580,51.43202237784860
1016,1016,namecafe,35.71886074747283,51.40829890966415
1017,1017,sincere,35.79252202006692,51.42523840069771
1018,1018,house_bread,35.79046818233868,51.41574338078499
1019,1019,fareen,35.78287845812205,51.37448284718016
1020,1020,sitandgo,35.80966536001124,51.44451677799225
1021,1021,muguet,35.59421200000000,51.44820780000000
1022,1022,cafekobar,35.74807526339564,51.33441478013992
1023,1023,raees_palladium,35.79734963509067,51.41320064663887
1024,1024,secondcup,35.80764676919073,51.40564620494842
1025,1025,music_vist,35.74150521764262,51.44887536764145
1026,1026,sun_star,35.78264505476876,51.46866738796234
1027,1027,hannan,35.68816504156731,51.37630887329578
1028,1028,cafe_75,35.75814044460362,51.44001603126526
1029,1029,bistrotpop,35.70473517729637,51.41680955886841
1030,1030,parvaz_cafe,35.79022559100870,51.35671198368072
1031,1031,roccopark_marzdaran,35.73451442450609,51.35813891887665
1032,1032,type,35.71305265427745,51.41912265704991
1033,1033,volo_parco,35.78965555286147,51.36038929224014
1034,1034,zhowan,35.77119455060458,51.37663006782532
1035,1035,cheese_factory,35.80477269023174,51.47680319845676
1036,1036,behdooneh,35.74731988811007,51.40518486499786
1037,1037,carota,35.76766734564587,51.35588049888611
1038,1038,waffle_plus,35.81571810585360,51.48384064435960
1039,1039,binam,35.74217050000000,51.27013480000000
1040,1040,lidoma_kakh,35.75661705007090,51.36377080546260
1041,1041,kariz_garden,35.77973362339635,51.44377782940864
1042,1042,tabiat-vip,35.75440903540129,51.42148226909649
1043,1043,black_bears,35.78614820528498,51.42649233341217
1044,1044,volga,35.71709130391130,51.41820708142860
1045,1045,viand,35.73166872815575,51.35604143142700
1046,1046,terrace,35.81826554800381,51.40904724597931
1047,1047,lebiina,35.79852331690512,51.44727140665054
1048,1048,amoobiook_icecream,35.70750356701080,51.37559787786030
1049,1049,gerrdo,35.72383763946657,51.46722838282585
1050,1050,nayrika,35.75486678833462,51.32991135120392
1051,1051,karfe,35.71371258723864,51.41379743814468
1052,1052,behrozan_tehranpars,35.72620348675035,51.51160955429077
1053,1053,river,35.75707390914842,51.44380867481232
1054,1054,pat,35.78262601820712,51.39818278688642
1055,1055,ashvan,35.70086352050919,51.31315455193544
1056,1056,viuna-heravicenter,35.76634858770149,51.47895285539562
1057,1057,viunaexpress_sana,35.80243637080105,51.45722910761833
1058,1058,hes_cafe,35.78732096465786,51.42354726791382
1059,1059,gerand_hayat,35.75752337611592,51.45575133753814
1060,1060,mania,35.73142704612235,51.58394068479538
1061,1061,game-cafe-gik,35.71633945087756,51.41772760776803
1062,1062,rouhi-cafe,35.69487766317981,51.43282557699422
1063,1063,peranah,35.77351873157967,51.36854052543640
1064,1064,persiangalf,35.74146167676340,51.40244364738464
1065,1065,whale,35.70194668207193,51.42370618879795
1066,1066,vozarahotelapartment,35.74445287978828,51.41183137893677
1067,1067,del,35.78331305873654,51.37797787785530
1068,1068,ghasremoj,35.75895230792796,51.43143028020859
1069,1069,yama,35.73078881323580,51.43578539599275
1070,1070,ariana-art-cafe,35.78657031362023,51.42829477787018
1071,1071,otagh_enqelab,35.69972224131832,51.40352994203567
1072,1072,boulevard,35.79755739652651,51.41302764415741
1073,1073,level4,35.80796598403154,51.42651647329330
1074,1074,bookcity,35.78246662930628,51.43635749816894
1075,1075,music,35.79976658091061,51.42785172945878
1076,1076,diplomat,35.72145865637420,51.42294242978096
1077,1077,raees-jam,35.72150438578060,51.42295718193054
1078,1078,lamiz,35.75881953728067,51.40977043658495
1079,1079,linecafe,35.75257689020270,51.36500000953674
1080,1080,opal,35.76288308932884,51.33648242801428
1081,1081,omid,35.72428729739558,51.30750417709350
1082,1082,kariz,35.77951330334193,51.44438937306404
1083,1083,azerbaijan_teahouse,35.70142459411149,51.39141928113531
1084,1084,sub,35.77912325374837,51.42165228724480
1085,1085,golestan1,35.67918561935471,51.41109591801069
1086,1086,bonjour-cafe,35.73581749261800,51.41743725454510
1087,1087,veis-cafe,35.70541400000000,51.40059300000000
1088,1088,rumi,35.78856035166620,51.43513297010910
1089,1089,radcafe,35.70152739198841,51.41169659793377
1090,1090,cofeyshe,35.71579562868022,51.42065584659576
1091,1091,icecream-reza,35.74484908602430,51.40483617782590
1092,1092,hessekhob,35.75840000000000,51.29140800000000
1093,1093,lavan,35.73854737715810,51.53135128319263
1094,1094,lalrservice,35.78996400000000,51.41507100000000
1095,1095,container,35.79356800000000,51.46407600000000
1096,1096,mahour2,35.71323077006940,51.41994948163880
1097,1097,saya,35.70064288391970,51.39806576229950
1098,1098,medico,35.76734800000000,51.41113300000000
1099,1099,vivacaffe,35.73686366530490,51.44284037297510
1100,1100,bam,35.69412200000000,51.37977200000000
1101,1101,linette,35.71937718024710,51.42257396762510
1102,1102,melange,35.73937200000000,51.43268900000000
1103,1103,arme,35.77889600000000,51.41453600000000
1104,1104,coffehe-gisha,35.73159500000000,51.37819300000000
1105,1105,ovan,35.75315433330280,51.32548157158630
1106,1106,emaratshahkar,35.69231900000000,51.48243700000000
1107,1107,vcafegholhak,35.76990800000000,51.44075200000000
1108,1108,raees,35.77005989489040,51.39689234505010
1109,1109,tiwan,35.80847552874229,51.40960514545441
1110,1110,derakhtginko,35.76922900000000,51.35998600000000
1111,1111,cake-studiousara,35.74511600000000,51.40024200000000
1112,1112,babylon-bistro,35.74500000000000,51.39933000000000
1113,1113,cavish,35.73615324778788,51.33612839155083
1114,1114,shato,35.76018200000000,51.33359100000000
1115,1115,setras,35.72877000000000,51.41562400000000
1116,1116,russia,35.71985800000000,51.40494300000000
1117,1117,papa-cafe,35.72634200000000,51.49294900000000
1118,1118,hayatshomare65,35.70291300000000,51.42111500000000
1119,1119,golha,35.69017740034020,51.41970331920060
1120,1120,shade,35.73351800000000,51.43994700000000
1121,1121,africa,35.73654000000000,51.41493600000000
1122,1122,agor,35.70135100000000,51.41673900000000
1123,1123,elsasaadatabad,35.76734200000000,51.37518700000000
1124,1124,parchak-cheese-house,35.74025993909902,51.40976272523403
1125,1125,sinama1,35.79630800000000,51.44175900000000
1126,1126,viunacafe,35.80257831395615,51.42233490943909
1127,1127,markof,35.69933234518842,51.40963196754455
1128,1128,sinama,35.80334200000000,51.42131400000000
1129,1129,labkhand1,35.71623063229165,51.50152780115604
1130,1130,upartmaan,35.71294164121228,51.41860060393810
1131,1131,baghmozemoghadam,35.68729500000000,51.40496500000000
1132,1132,emaratrooberoo,35.70160185422340,51.40589643534450
1133,1133,shahnameh,35.79107100000000,51.47719100000000
1134,1134,exit,35.70990947297530,51.40375380268470
1135,1135,loshaneh,35.80580712267910,51.43053503663400
1136,1136,chaibarcafe,35.80409800000000,51.44590800000000
1137,1137,lamizcafe,35.71993300000000,51.40522400000000
1138,1138,amir,35.72297206802729,51.40840083360672
1139,1139,armeniya,35.72433629144757,51.43840067088604
1140,1140,matino,35.80447847874091,51.42123553901911
1141,1141,hotelborjsefid,35.76647935612770,51.45605560658520
1142,1142,rick,35.79271456463248,51.35705530643463
1143,1143,ood,35.71121200000000,51.38446400000000
1144,1144,deno,35.73824064347460,51.31396605217930
1145,1145,mira,35.70044756577790,51.39071815902720
1146,1146,selfi,35.69960478061740,51.40452249460390
1147,1147,manoro,35.76358900000000,51.41080700000000
1148,1148,atigh,35.76620647223939,51.39523923397064
1149,1149,amirchocolate,35.70848133251505,51.46124839782715
1150,1150,roja,35.69380062459680,51.42578691244125
1151,1151,gooshe,35.70583352952320,51.42564454424480
1152,1152,rang,35.70905223104210,51.45206050065680
1153,1153,milieu,35.76303761774180,51.47617220878600
1154,1154,barn,35.72236200000000,51.43397400000000
1155,1155,reera,35.69697845712080,51.41143087659270
1156,1156,bofe-ketab,35.70936436250680,51.41355786160390
1157,1157,hotchocolateniloofar,35.73982581138260,51.43265768452640
1158,1158,karzin-vanak,35.75998344947008,51.40561468899250
1159,1159,coco,35.76983433672150,51.35844764811500
1160,1160,delo,35.71092375098214,51.31568408398607
1161,1161,vcafefelestin,35.70217557693610,51.40261103067230
1162,1162,dorsa,35.77197948149230,51.43905116225560
1163,1163,vionaplus,35.75679775031656,51.41733510419726
1164,1164,beniceandarzgo,35.79715438235600,51.44505858421326
1165,1165,jelatolab,35.75313141293060,51.37436628341675
1166,1166,naser,35.79343940421340,51.47677312533570
1167,1167,belin,35.70836535680385,51.41989946365356
1168,1168,melody,35.72515952310902,51.43489292822778
1169,1169,nescocafe,35.69960080739287,51.34761929512024
1170,1170,robertocafe,35.76366606646920,51.45572304725647
1171,1171,gozar,35.71551904122930,51.41941639573230
1172,1172,dodo,35.72187805175780,51.33625411987300
1174,1174,sepanj,35.74767553579640,51.40505611896515
1175,1175,lamiz-enghelab,35.70215047541600,51.39094871984270
1176,1176,lamiz-mirdamad,35.75996864374360,51.43410346872920
1177,1177,lamiz-tajrish,35.80725519729830,51.42803343929560
1178,1178,shano,35.77315944705590,51.43854868520820
1179,1179,samcoffee2,35.76578910445720,51.39859867487970
1180,1180,sousheh,35.76680688940940,51.39928531862390
1181,1181,un,35.71059037311291,51.40589296817779
1182,1182,hookagi,35.76184672980140,51.45998433420500
1183,1183,cafeeskan,35.74400687329378,51.41455633565783
1184,1184,nando,35.79600488333931,51.52584135532379
1185,1185,sadafmirdamad,35.75846774840831,51.44138932228088
1186,1186,panjere,35.70713000000000,51.39144900000000
1187,1187,khas,35.82025940140632,51.49214744567871
1188,1188,samcofe,35.79095645000510,51.41991360072090
1189,1189,cofenaderi,35.69484227614601,51.41676664352417
1190,1190,kincoofe,35.79858586202030,51.44820213317871
1191,1191,liv-liv,35.75941997869130,51.41024550663090
1192,1192,nazdikcoofe,35.71500510289724,51.41962051391601
1193,1193,anso,35.71021060291552,51.41429632902145
1194,1194,part,35.73829428606246,51.31375892087817
1195,1195,ascoffe,35.75471600000000,51.45241500000000
1196,1196,raya,35.71620558834338,51.42178773880005
1197,1197,kajeh,35.71520393284084,51.48967981338501
1198,1198,oriant,35.70239526865087,51.42583492372068
1199,1199,emarat-res,35.73292965416676,51.52829272672534
1200,1200,viuna-milad,35.74486105925892,51.37520313262939
1201,1201,lavender,35.80205121903650,51.41754550346330
1202,1202,andora,35.70229899294385,51.40428163111210
1203,1203,leoncaffee,35.74454512853170,51.39897286891937
1204,1204,viunanoor,35.72905611465337,51.42081409692764
1205,1205,langin-shahrakgharb,35.76549520488864,51.35863244533539
1206,1206,langingandi,35.75319595259999,51.41288495011395
1207,1207,cafe-sadaf,35.73930143885390,51.40943562932080
1208,1208,lido,35.72988848328007,51.49510324001312
1209,1209,vorta,35.70125457998380,51.39990091323850
1210,1210,paradizu,35.72337700000000,51.42929800000000
1211,1211,doris,35.75994110107420,51.46426773071290
1212,1212,shandizsoor,35.78788875303720,51.42131297104040
1213,1213,coffeelime,35.79167460086896,51.42326831817627
1214,1214,coffeesolehvanak,35.76673464268240,51.39924432476590
1215,1215,amirshokolatfarmanieh,35.80171860183281,51.45513832569122
1216,1216,b133,35.79423700000000,51.45040400000000
1217,1217,b30,35.72484555561483,51.42776370048523
1218,1218,b130,35.81147236856006,51.46447777748108
1219,1219,b36,35.75879858779355,51.44263386726379
1220,1220,b65,35.71274100000000,51.40320100000000
1221,1221,b6,35.76622034658230,51.39871537685394
1222,1222,spidgah,35.71418900000000,51.42191600000000
1223,1223,loupato,35.75866700000000,51.39616700000000
1224,1224,b19,35.77583500685278,51.41358581800887
1225,1225,paeez98shahrara,35.71586509402107,51.37143222145823
1226,1226,b60,35.80606686684501,51.44086026171033
1227,1227,b34,35.73608332445332,51.41538262367248
1228,1228,saghdoosh,35.75933581838830,51.46787881851196
1229,1229,first_cup_cafe,35.75829803029664,51.40841960906982
1230,1230,b109,35.80811052587041,51.42856836318970
1231,1231,spu,35.80623300000000,51.38416000000000
1232,1232,b21,35.77580041058694,51.41355335712433
1233,1233,selin,35.71796417236330,51.42312622070310
1234,1234,b23,35.74754061808424,51.33181063021766
1235,1235,pesto,35.72687240007407,51.37951612472534
1236,1236,pop,35.76749139020416,51.44163608551025
1237,1237,lamizvaliasr,35.70175507559960,51.40528094612070
1238,1238,icafe,35.76011404164069,51.43412590026855
